[{"id":1,"name":"차 마시는 한옥","lat":37.75359999999999872,"lng":128.89609999999999,"address":"강원 강릉시 명주동 한옥길 12","category":"cafe","crew":"명주크루","region":"강릉","rating":4.900000000000000355,"review_count":342,"phone":"033-642-1234","hours":"매일 10:00~21:00","price_range":"₩5,000~15,000","naver_url":null,"image":null,"is_active":1,"created_at":"2026-06-17 06:31:16","updated_at":null},
{"id":2,"name":"명주 인디서점","lat":37.75480000000000303,"lng":128.8978999999999929,"address":"강원 강릉시 명주동 서점길 5-3","category":"bookstore","crew":"명주크루","region":"강릉","rating":4.799999999999999823,"review_count":189,"phone":"033-642-5678","hours":"화~일 11:00~20:00","price_range":"₩8,000~25,000","naver_url":null,"image":null,"is_active":1,"created_at":"2026-06-17 06:31:16","updated_at":null},
{"id":3,"name":"로컬 레코드 카페","lat":37.75209999999999866,"lng":128.8944999999999937,"address":"강원 강릉시 명주동 카페로 28","category":"cafe","crew":"명주크루","region":"강릉","rating":4.700000000000000177,"review_count":267,"phone":"033-641-0028","hours":"매일 11:00~22:00","price_range":"₩4,500~12,000","naver_url":null,"image":null,"is_active":1,"created_at":"2026-06-17 06:31:16","updated_at":null},
{"id":4,"name":"명주 할머니 밥상","lat":37.75580000000000069,"lng":128.8997999999999991,"address":"강원 강릉시 명주동 밥상길 7","category":"food","crew":"명주크루","region":"강릉","rating":4.900000000000000355,"review_count":521,"phone":"033-643-7890","hours":"매일 11:00~15:00, 17:00~20:30","price_range":"₩8,000~15,000","naver_url":null,"image":null,"is_active":1,"created_at":"2026-06-17 06:31:16","updated_at":null},
{"id":5,"name":"밤새는 책방","lat":37.55649999999999978,"lng":126.910499999999999,"address":"서울 마포구 망원동 독서로 11","category":"bookstore","crew":"망원러너스","region":"서울","rating":4.799999999999999823,"review_count":412,"phone":"02-334-1123","hours":"매일 18:00~02:00","price_range":"₩0~20,000","naver_url":null,"image":null,"is_active":1,"created_at":"2026-06-17 06:31:16","updated_at":null},
{"id":6,"name":"연남동 로스터리","lat":37.56620000000000203,"lng":126.9248000000000047,"address":"서울 마포구 연남동 커피길 23","category":"cafe","crew":"연남러너크루","region":"서울","rating":4.599999999999999644,"review_count":658,"phone":"02-335-2345","hours":"매일 09:00~22:00","price_range":"₩4,000~9,000","naver_url":null,"image":null,"is_active":1,"created_at":"2026-06-17 06:31:16","updated_at":null},
{"id":7,"name":"리아뜰리에 공방","lat":37.54449999999999932,"lng":127.0557000000000016,"address":"서울 성동구 성수동 공방로 8","category":"workshop","crew":"성수메이커스","region":"서울","rating":4.700000000000000177,"review_count":203,"phone":"02-498-8910","hours":"화~토 10:00~19:00","price_range":"₩30,000~80,000","naver_url":null,"image":null,"is_active":1,"created_at":"2026-06-17 06:31:16","updated_at":null},
{"id":8,"name":"인쇄소 옆 미술관","lat":37.5660000000000025,"lng":126.9916999999999945,"address":"서울 중구 을지로 인쇄골목 5","category":"gallery","crew":"을지로아트크루","region":"서울","rating":4.5,"review_count":178,"phone":"02-2267-4560","hours":"수~일 12:00~20:00","price_range":"₩5,000~10,000","naver_url":null,"image":null,"is_active":1,"created_at":"2026-06-17 06:31:16","updated_at":null},
{"id":9,"name":"해방촌 빈티지샵","lat":37.54099999999999681,"lng":126.9869999999999948,"address":"서울 용산구 해방촌로 34","category":"shop","crew":"해방촌로컬즈","region":"서울","rating":4.400000000000000356,"review_count":145,"phone":"02-793-3456","hours":"매일 12:00~21:00","price_range":"₩10,000~150,000","naver_url":null,"image":null,"is_active":1,"created_at":"2026-06-17 06:31:16","updated_at":null},
{"id":10,"name":"서촌 감성 떡집","lat":37.57900000000000062,"lng":126.9706000000000045,"address":"서울 종로구 서촌길 12-3","category":"food","crew":"서촌산책러","region":"서울","rating":4.799999999999999823,"review_count":387,"phone":"02-737-7890","hours":"화~일 10:00~18:00","price_range":"₩3,000~12,000","naver_url":null,"image":null,"is_active":1,"created_at":"2026-06-17 06:31:16","updated_at":null},
{"id":11,"name":"양양 서퍼 브루어리","lat":38.0752999999999986,"lng":128.6184000000000082,"address":"강원 양양군 현남면 서핑로 77","category":"brewery","crew":"양양서퍼연합","region":"양양","rating":4.900000000000000355,"review_count":891,"phone":"033-672-1234","hours":"매일 12:00~23:00","price_range":"₩6,000~18,000","naver_url":null,"image":null,"is_active":1,"created_at":"2026-06-17 06:31:16","updated_at":null},
{"id":12,"name":"죽도 해변 카페","lat":38.08100000000000307,"lng":128.6300999999999988,"address":"강원 양양군 현남면 해변길 5","category":"cafe","crew":"양양서퍼연합","region":"양양","rating":4.599999999999999644,"review_count":234,"phone":"033-672-5678","hours":"매일 09:00~20:00","price_range":"₩4,500~10,000","naver_url":null,"image":null,"is_active":1,"created_at":"2026-06-17 06:31:16","updated_at":null},
{"id":13,"name":"청학포구 전통주바","lat":35.07260000000000133,"lng":129.0674999999999955,"address":"부산 영도구 청학로 28","category":"bar","crew":"영도로컬클럽","region":"부산","rating":4.700000000000000177,"review_count":312,"phone":"051-405-2828","hours":"화~일 17:00~24:00","price_range":"₩8,000~25,000","naver_url":null,"image":null,"is_active":1,"created_at":"2026-06-17 06:31:16","updated_at":null},
{"id":14,"name":"흰여울 문화마을 갤러리","lat":35.06880000000000309,"lng":129.0635000000000047,"address":"부산 영도구 흰여울길 12","category":"gallery","crew":"영도로컬클럽","region":"부산","rating":4.799999999999999823,"review_count":189,"phone":"051-404-1212","hours":"수~일 10:00~18:00","price_range":"무료~₩5,000","naver_url":null,"image":null,"is_active":1,"created_at":"2026-06-17 06:31:16","updated_at":null},
{"id":15,"name":"영도 어시장 밥집","lat":35.07500000000000285,"lng":129.070999999999998,"address":"부산 영도구 대교로 44","category":"food","crew":"영도로컬클럽","region":"부산","rating":4.5,"review_count":467,"phone":"051-403-4444","hours":"매일 07:00~20:00","price_range":"₩8,000~20,000","naver_url":null,"image":null,"is_active":1,"created_at":"2026-06-17 06:31:16","updated_at":null},
{"id":16,"name":"전주 한옥 막걸리집","lat":35.81620000000000203,"lng":127.1527999999999992,"address":"전북 전주시 완산구 한옥마을로 9","category":"bar","crew":"전주한옥크루","region":"전주","rating":4.900000000000000355,"review_count":723,"phone":"063-231-0909","hours":"매일 15:00~23:00","price_range":"₩5,000~15,000","naver_url":null,"image":null,"is_active":1,"created_at":"2026-06-17 06:31:16","updated_at":null},
{"id":17,"name":"전주 비빔밥 명가","lat":35.8147999999999982,"lng":127.1539999999999964,"address":"전북 전주시 완산구 전동 비빔로 3","category":"food","crew":"전주한옥크루","region":"전주","rating":4.799999999999999823,"review_count":1243,"phone":"063-232-1717","hours":"매일 10:00~21:00","price_range":"₩9,000~15,000","naver_url":null,"image":null,"is_active":1,"created_at":"2026-06-17 06:31:16","updated_at":null},
{"id":18,"name":"제주 해녀 카페","lat":33.51259999999999906,"lng":126.5310000000000059,"address":"제주 제주시 한림읍 해녀길 7","category":"cafe","crew":"제주해녀크루","region":"제주","rating":4.700000000000000177,"review_count":356,"phone":"064-796-1818","hours":"매일 10:00~19:00","price_range":"₩5,000~12,000","naver_url":null,"image":null,"is_active":1,"created_at":"2026-06-17 06:31:16","updated_at":null},
{"id":19,"name":"우도 감귤 디저트","lat":33.5035000000000025,"lng":126.9530000000000029,"address":"제주 제주시 우도면 감귤로 15","category":"food","crew":"제주해녀크루","region":"제주","rating":4.599999999999999644,"review_count":289,"phone":"064-784-1919","hours":"매일 09:00~18:00","price_range":"₩4,000~10,000","naver_url":null,"image":null,"is_active":1,"created_at":"2026-06-17 06:31:16","updated_at":null},
{"id":20,"name":"서귀포 인디아트숍","lat":33.24799999999999756,"lng":126.5619999999999977,"address":"제주 서귀포시 이중섭로 22","category":"gallery","crew":"서귀포아트라인","region":"제주","rating":4.5,"review_count":156,"phone":"064-763-2020","hours":"목~화 11:00~19:00","price_range":"₩0~50,000","naver_url":null,"image":null,"is_active":1,"created_at":"2026-06-17 06:31:16","updated_at":null},
{"id":21,"name":"달빛 마루 한옥 스테이","lat":37.75419999999999731,"lng":128.8969999999999914,"address":"강원 강릉시 명주동 한옥길 18","category":"stay","crew":"명주크루","region":"강릉","rating":4.900000000000000355,"review_count":42,"phone":"033-642-8521","hours":"체크인 15:00 / 체크아웃 11:00","price_range":"₩85,000/박","naver_url":null,"image":null,"is_active":1,"created_at":"2026-06-17 06:31:16","updated_at":null},
{"id":22,"name":"웨이브 서프 하우스","lat":38.07950000000000302,"lng":128.625,"address":"강원 양양군 현남면 죽도해변길 22","category":"stay","crew":"양양서퍼연합","region":"양양","rating":4.700000000000000177,"review_count":18,"phone":"033-672-9922","hours":"체크인 16:00 / 체크아웃 10:00","price_range":"₩45,000/박","naver_url":null,"image":null,"is_active":1,"created_at":"2026-06-17 06:31:16","updated_at":null},
{"id":23,"name":"제주 아뜰리에 풀빌라","lat":33.55599999999999738,"lng":126.8589999999999947,"address":"제주 제주시 구좌읍 월정리 12-3","category":"stay","crew":"제주해녀크루","region":"제주","rating":4.799999999999999823,"review_count":31,"phone":"064-784-2323","hours":"체크인 15:00 / 체크아웃 11:00","price_range":"₩250,000/박","naver_url":null,"image":null,"is_active":1,"created_at":"2026-06-17 06:31:16","updated_at":null},
{"id":24,"name":"영도 바다뷰 게스트하우스","lat":35.07119999999999749,"lng":129.0660000000000025,"address":"부산 영도구 흰여울길 8-2","category":"stay","crew":"영도로컬클럽","region":"부산","rating":4.599999999999999644,"review_count":56,"phone":"051-405-2424","hours":"체크인 15:00 / 체크아웃 11:00","price_range":"₩55,000/박","naver_url":null,"image":null,"is_active":1,"created_at":"2026-06-17 06:31:16","updated_at":null},
{"id":25,"name":"전주 한옥 고택 민박","lat":35.81550000000000011,"lng":127.152000000000001,"address":"전북 전주시 완산구 한옥마을로 22","category":"stay","crew":"전주한옥크루","region":"전주","rating":4.900000000000000355,"review_count":73,"phone":"063-231-2525","hours":"체크인 15:00 / 체크아웃 11:00","price_range":"₩70,000/박","naver_url":null,"image":null,"is_active":1,"created_at":"2026-06-17 06:31:16","updated_at":null},
{"id":26,"name":"이태원 로컬 게스트하우스","lat":37.5345000000000013,"lng":126.9945000000000021,"address":"서울 용산구 이태원로 55-7","category":"stay","crew":"해방촌로컬즈","region":"서울","rating":4.5,"review_count":89,"phone":"02-793-2626","hours":"체크인 14:00 / 체크아웃 11:00","price_range":"₩40,000/박","naver_url":null,"image":null,"is_active":1,"created_at":"2026-06-17 06:31:16","updated_at":null}]
